[
  {
    "id": 1,
    "title": "Community Iftar â€” ICB Wayland",
    "date": "Sat Feb 22",
    "time": "Maghrib",
    "location": "126 Boston Post Rd, Wayland, MA",
    "city": "Wayland",
    "state": "MA",
    "region": "Northeast",
    "type": "free",
    "spots": 120,
    "organizer": "Islamic Center of Boston",
    "registration": true,
    "description": "Family-friendly community iftar with traditional meals"
  },
  {
    "id": 2,
    "title": "MSA Iftar Dinner",
    "date": "Sun Feb 23",
    "time": "6:30 PM",
    "location": "NYU Student Center, New York, NY",
    "city": "New York",
    "state": "NY",
    "region": "Northeast",
    "type": "free",
    "spots": 200,
    "organizer": "NYU Muslim Students Association",
    "registration": true,
    "description": "Open to all students and community members"
  },
  {
    "id": 3,
    "title": "Interfaith Iftar",
    "date": "Mon Feb 24",
    "time": "Maghrib",
    "location": "City Hall Plaza, Philadelphia, PA",
    "city": "Philadelphia",
    "state": "PA",
    "region": "Northeast",
    "type": "free",
    "spots": 500,
    "organizer": "Philadelphia Interfaith Coalition",
    "registration": false,
    "description": "Bringing communities together for understanding and unity"
  },
  {
    "id": 4,
    "title": "Youth Iftar Night",
    "date": "Tue Feb 25",
    "time": "7:00 PM",
    "location": "ADAMS Center, Sterling, VA",
    "city": "Sterling",
    "state": "VA",
    "region": "Northeast",
    "type": "free",
    "spots": 150,
    "organizer": "ADAMS Center",
    "registration": true,
    "description": "Special program for youth with activities and dinner"
  },
  {
    "id": 5,
    "title": "Community Potluck Iftar",
    "date": "Wed Feb 26",
    "time": "Maghrib",
    "location": "Islamic Society of Baltimore, Baltimore, MD",
    "city": "Baltimore",
    "state": "MD",
    "region": "Northeast",
    "type": "free",
    "organizer": "Islamic Society of Baltimore",
    "registration": false,
    "description": "Bring a dish to share with the community"
  },
  {
    "id": 6,
    "title": "Sisters Iftar Gathering",
    "date": "Thu Feb 27",
    "time": "6:45 PM",
    "location": "Islamic Center of New England, Sharon, MA",
    "city": "Sharon",
    "state": "MA",
    "region": "Northeast",
    "type": "free",
    "spots": 80,
    "organizer": "ICNE Sisters Committee",
    "registration": true,
    "description": "Exclusive gathering for sisters with spiritual talks"
  },
  {
    "id": 7,
    "title": "Grand Iftar Banquet",
    "date": "Fri Feb 28",
    "time": "Maghrib",
    "location": "Hyatt Regency, Washington, DC",
    "city": "Washington",
    "state": "DC",
    "region": "Northeast",
    "type": "paid",
    "spots": 300,
    "organizer": "DC Muslim Community",
    "registration": true,
    "description": "Formal iftar banquet with keynote speaker"
  },
  {
    "id": 8,
    "title": "Ramadan Night Market & Iftar",
    "date": "Sat Mar 1",
    "time": "5:30 PM",
    "location": "Islamic Cultural Center, Pittsburgh, PA",
    "city": "Pittsburgh",
    "state": "PA",
    "region": "Northeast",
    "type": "free",
    "organizer": "ICC Pittsburgh",
    "registration": false,
    "description": "Market with vendors followed by community iftar"
  },
  {
    "id": 9,
    "title": "Masjid Community Iftar",
    "date": "Sun Mar 2",
    "time": "Maghrib",
    "location": "Islamic Center of America, Dearborn, MI",
    "city": "Dearborn",
    "state": "MI",
    "region": "Midwest",
    "type": "free",
    "spots": 400,
    "organizer": "ICA Dearborn",
    "registration": false,
    "description": "Daily community iftar open to all"
  },
  {
    "id": 10,
    "title": "Convert/Revert Iftar",
    "date": "Mon Mar 3",
    "time": "7:00 PM",
    "location": "Downtown Islamic Center, Chicago, IL",
    "city": "Chicago",
    "state": "IL",
    "region": "Midwest",
    "type": "free",
    "spots": 60,
    "organizer": "DIC Dawah Committee",
    "registration": true,
    "description": "Special iftar for new Muslims with support and resources"
  },
  {
    "id": 11,
    "title": "University Iftar & Game Night",
    "date": "Tue Mar 4",
    "time": "6:30 PM",
    "location": "Ohio State University, Columbus, OH",
    "city": "Columbus",
    "state": "OH",
    "region": "Midwest",
    "type": "free",
    "spots": 150,
    "organizer": "OSU MSA",
    "registration": true,
    "description": "Iftar followed by board games and socializing"
  },
  {
    "id": 12,
    "title": "Fundraiser Iftar Gala",
    "date": "Wed Mar 5",
    "time": "7:00 PM",
    "location": "Marriott Hotel, Milwaukee, WI",
    "city": "Milwaukee",
    "state": "WI",
    "region": "Midwest",
    "type": "paid",
    "spots": 250,
    "organizer": "Milwaukee Muslim Alliance",
    "registration": true,
    "description": "Charity gala supporting local food banks"
  },
  {
    "id": 13,
    "title": "Family Fun Iftar",
    "date": "Thu Mar 6",
    "time": "Maghrib",
    "location": "Islamic Association of Greater Detroit, Rochester Hills, MI",
    "city": "Rochester Hills",
    "state": "MI",
    "region": "Midwest",
    "type": "free",
    "spots": 200,
    "organizer": "IAGD",
    "registration": false,
    "description": "Kids activities, bouncy houses, and family dinner"
  },
  {
    "id": 14,
    "title": "Young Professionals Iftar",
    "date": "Fri Mar 7",
    "time": "7:00 PM",
    "location": "Islamic Society of Greater Kansas City, Overland Park, KS",
    "city": "Overland Park",
    "state": "KS",
    "region": "Midwest",
    "type": "free",
    "spots": 100,
    "organizer": "ISGKC YP Committee",
    "registration": true,
    "description": "Networking iftar for young professionals"
  },
  {
    "id": 15,
    "title": "Homeless Shelter Iftar Service",
    "date": "Sat Mar 8",
    "time": "6:00 PM",
    "location": "Hope Center, Minneapolis, MN",
    "city": "Minneapolis",
    "state": "MN",
    "region": "Midwest",
    "type": "free",
    "organizer": "Twin Cities Muslim Community",
    "registration": true,
    "description": "Volunteer to serve iftar at local homeless shelter"
  },
  {
    "id": 16,
    "title": "Community Center Iftar",
    "date": "Sun Mar 9",
    "time": "Maghrib",
    "location": "Islamic Community Center of Illinois, Des Plaines, IL",
    "city": "Des Plaines",
    "state": "IL",
    "region": "Midwest",
    "type": "free",
    "spots": 300,
    "organizer": "ICCI",
    "registration": false,
    "description": "Daily iftar with short Quran recitation"
  },
  {
    "id": 17,
    "title": "Downtown Mosque Iftar",
    "date": "Mon Mar 10",
    "time": "Maghrib",
    "location": "Islamic Society of Greater Houston, Houston, TX",
    "city": "Houston",
    "state": "TX",
    "region": "South",
    "type": "free",
    "spots": 500,
    "organizer": "ISGH",
    "registration": false,
    "description": "Open iftar for the entire community"
  },
  {
    "id": 18,
    "title": "University MSA Iftar",
    "date": "Tue Mar 11",
    "time": "6:30 PM",
    "location": "University of Texas at Austin, Austin, TX",
    "city": "Austin",
    "state": "TX",
    "region": "South",
    "type": "free",
    "spots": 180,
    "organizer": "UT Austin MSA",
    "registration": true,
    "description": "Students and faculty welcome"
  },
  {
    "id": 19,
    "title": "Multicultural Iftar",
    "date": "Wed Mar 12",
    "time": "7:00 PM",
    "location": "Masjid Al-Muminun, Atlanta, GA",
    "city": "Atlanta",
    "state": "GA",
    "region": "South",
    "type": "free",
    "spots": 250,
    "organizer": "Atlanta Muslim Community",
    "registration": false,
    "description": "Celebrating diversity with international cuisines"
  },
  {
    "id": 20,
    "title": "Sisters Spiritual Retreat Iftar",
    "date": "Thu Mar 13",
    "time": "Maghrib",
    "location": "Islamic Center of Nashville, Nashville, TN",
    "city": "Nashville",
    "state": "TN",
    "region": "South",
    "type": "paid",
    "spots": 75,
    "organizer": "ICN Sisters Circle",
    "registration": true,
    "description": "Weekend retreat with scholars and workshops"
  },
  {
    "id": 21,
    "title": "Corporate Iftar Networking",
    "date": "Fri Mar 14",
    "time": "7:00 PM",
    "location": "Charlotte Convention Center, Charlotte, NC",
    "city": "Charlotte",
    "state": "NC",
    "region": "South",
    "type": "paid",
    "spots": 200,
    "organizer": "Muslim Professionals Network",
    "registration": true,
    "description": "Professional networking event with iftar dinner"
  },
  {
    "id": 22,
    "title": "Park Iftar Picnic",
    "date": "Sat Mar 15",
    "time": "Maghrib",
    "location": "Hermann Park, Houston, TX",
    "city": "Houston",
    "state": "TX",
    "region": "South",
    "type": "free",
    "organizer": "Houston Youth Council",
    "registration": false,
    "description": "Outdoor iftar picnic in the park"
  },
  {
    "id": 23,
    "title": "Masjid Weekly Iftar",
    "date": "Sun Mar 16",
    "time": "Maghrib",
    "location": "Islamic Center of South Florida, Pompano Beach, FL",
    "city": "Pompano Beach",
    "state": "FL",
    "region": "South",
    "type": "free",
    "spots": 350,
    "organizer": "ICSF",
    "registration": false,
    "description": "Weekly community iftar every Sunday"
  },
  {
    "id": 24,
    "title": "Youth Leadership Iftar",
    "date": "Mon Mar 17",
    "time": "6:45 PM",
    "location": "Birmingham Islamic Society, Birmingham, AL",
    "city": "Birmingham",
    "state": "AL",
    "region": "South",
    "type": "free",
    "spots": 90,
    "organizer": "BIS Youth Department",
    "registration": true,
    "description": "Leadership workshop followed by iftar"
  },
  {
    "id": 25,
    "title": "Grand Mosque Iftar",
    "date": "Tue Mar 18",
    "time": "Maghrib",
    "location": "Islamic Center of Southern California, Los Angeles, CA",
    "city": "Los Angeles",
    "state": "CA",
    "region": "West",
    "type": "free",
    "spots": 600,
    "organizer": "ICSC",
    "registration": false,
    "description": "One of the largest iftars in Southern California"
  },
  {
    "id": 26,
    "title": "Tech Community Iftar",
    "date": "Wed Mar 19",
    "time": "7:00 PM",
    "location": "Facebook Campus, Menlo Park, CA",
    "city": "Menlo Park",
    "state": "CA",
    "region": "West",
    "type": "free",
    "spots": 150,
    "organizer": "Silicon Valley Muslim Professionals",
    "registration": true,
    "description": "Iftar for tech professionals and engineers"
  },
  {
    "id": 27,
    "title": "Beachside Iftar",
    "date": "Thu Mar 20",
    "time": "Maghrib",
    "location": "Ocean Beach, San Diego, CA",
    "city": "San Diego",
    "state": "CA",
    "region": "West",
    "type": "free",
    "organizer": "San Diego Muslim Community",
    "registration": false,
    "description": "Beautiful sunset iftar by the ocean"
  },
  {
    "id": 28,
    "title": "University Campus Iftar",
    "date": "Fri Mar 21",
    "time": "6:30 PM",
    "location": "UC Berkeley, Berkeley, CA",
    "city": "Berkeley",
    "state": "CA",
    "region": "West",
    "type": "free",
    "spots": 200,
    "organizer": "Cal MSA",
    "registration": true,
    "description": "Open to students, faculty, and local community"
  },
  {
    "id": 29,
    "title": "Charity Fundraiser Iftar",
    "date": "Sat Mar 22",
    "time": "7:00 PM",
    "location": "Hilton Hotel, Seattle, WA",
    "city": "Seattle",
    "state": "WA",
    "region": "West",
    "type": "paid",
    "spots": 400,
    "organizer": "Seattle Islamic Center",
    "registration": true,
    "description": "Annual gala supporting local charities"
  },
  {
    "id": 30,
    "title": "Converts Circle Iftar",
    "date": "Sun Mar 23",
    "time": "Maghrib",
    "location": "Masjid Al-Noor, Portland, OR",
    "city": "Portland",
    "state": "OR",
    "region": "West",
    "type": "free",
    "spots": 50,
    "organizer": "Portland New Muslims Group",
    "registration": true,
    "description": "Support group for new Muslims"
  },
  {
    "id": 31,
    "title": "Community Outreach Iftar",
    "date": "Mon Mar 24",
    "time": "6:45 PM",
    "location": "Islamic Society of Las Vegas, Las Vegas, NV",
    "city": "Las Vegas",
    "state": "NV",
    "region": "West",
    "type": "free",
    "spots": 200,
    "organizer": "ISLV",
    "registration": false,
    "description": "Inviting neighbors to learn about Ramadan"
  },
  {
    "id": 32,
    "title": "Mountain View Iftar",
    "date": "Tue Mar 25",
    "time": "Maghrib",
    "location": "Colorado Muslim Society, Denver, CO",
    "city": "Denver",
    "state": "CO",
    "region": "West",
    "type": "free",
    "spots": 180,
    "organizer": "CMS",
    "registration": false,
    "description": "Community iftar with mountain views"
  },
  {
    "id": 33,
    "title": "Family Game Night Iftar",
    "date": "Wed Mar 26",
    "time": "6:30 PM",
    "location": "Islamic Center of Arizona, Phoenix, AZ",
    "city": "Phoenix",
    "state": "AZ",
    "region": "West",
    "type": "free",
    "spots": 160,
    "organizer": "ICA Phoenix",
    "registration": true,
    "description": "Family-friendly with games and activities for kids"
  },
  {
    "id": 34,
    "title": "Medical Professionals Iftar",
    "date": "Thu Mar 27",
    "time": "7:00 PM",
    "location": "Albuquerque Islamic Center, Albuquerque, NM",
    "city": "Albuquerque",
    "state": "NM",
    "region": "West",
    "type": "free",
    "spots": 70,
    "organizer": "Muslim Healthcare Network",
    "registration": true,
    "description": "Networking for Muslim healthcare professionals"
  },
  {
    "id": 35,
    "title": "Laylat al-Qadr Special Iftar",
    "date": "Fri Mar 28",
    "time": "Maghrib",
    "location": "Masjid Omar, Los Angeles, CA",
    "city": "Los Angeles",
    "state": "CA",
    "region": "West",
    "type": "free",
    "spots": 700,
    "organizer": "Masjid Omar",
    "registration": false,
    "description": "Special night of worship and community iftar"
  },
  {
    "id": 36,
    "title": "Eid Preparation Iftar",
    "date": "Sat Mar 29",
    "time": "6:30 PM",
    "location": "Islamic Center of San Jose, San Jose, CA",
    "city": "San Jose",
    "state": "CA",
    "region": "West",
    "type": "free",
    "spots": 300,
    "organizer": "ICSJ",
    "registration": false,
    "description": "Final community iftar before Eid"
  }
]
